[
  {
    "id": "1",
    "name": "agb",
    "sitio": null,
    "barangay": "Agbatuan",
    "municipality": "Dumarao",
    "province": "Capiz",
    "region": "VI",
    "latitude": "11.28137",
    "longitude": "122.83113",
    "households": "7 households, Agbatuan Elementary School",
    "season": "1"
  },
  {
    "id": "2",
    "name": "bak",
    "sitio": null,
    "barangay": "Poblacion",
    "municipality": "Bakun",
    "province": "Benguet",
    "region": "CAR",
    "latitude": "16.79070",
    "longitude": "120.66163",
    "households": "At least 37 households, chapel",
    "season": "2"
  },
  {
    "id": "3",
    "name": "ban",
    "sitio": null,
    "barangay": "Banlasan",
    "municipality": "Calape",
    "province": "Bohol",
    "region": "VI",
    "latitude": "9.88856",
    "longitude": "123.94878",
    "households": "9 households (29 residents), Kauswagan-Pawa Road",
    "season": "1"
  },
  {
    "id": "4",
    "name": "bar",
    "sitio": null,
    "barangay": "Baras",
    "municipality": "Tarangnan",
    "province": "Samar",
    "region": "VIII",
    "latitude": "11.90278",
    "longitude": "124.65665",
    "households": "At least 41 households (204 residents), barangay hall, Baras Elementary School, church",
    "season": "1"
  },
  {
    "id": "5",
    "name": "bay",
    "sitio": null,
    "barangay": "Bayabas",
    "municipality": "Labo",
    "province": "Camarines Norte",
    "region": "V ",
    "latitude": "14.18797",
    "longitude": "122.46752",
    "households": "At least 18 households (75 residents), Seedling Nursery, Maharlika Highway",
    "season": "1"
  },
  {
    "id": "6",
    "name": "blc",
    "sitio": null,
    "barangay": "Boloc",
    "municipality": "Tubungan",
    "province": "Iloilo",
    "region": "VI",
    "latitude": "10.82815",
    "longitude": "122.31149",
    "households": "1 household, road",
    "season": "2"
  },
  {
    "id": "7",
    "name": "bol",
    "sitio": "Purok 3 and 4",
    "barangay": "Bolodbolod",
    "municipality": "St. Bernard",
    "province": "Southern Leyte",
    "region": "VIII",
    "latitude": "10.30199",
    "longitude": "125.12794",
    "households": "At least 12 households (51 residents)",
    "season": "1"
  },
  {
    "id": "8",
    "name": "bto",
    "sitio": null,
    "barangay": "Bato",
    "municipality": "Sibonga",
    "province": "Cebu",
    "region": "VI",
    "latitude": "10.01379",
    "longitude": "123.57763",
    "households": "At least 10 households (43 residents), barangay hall, Sibonga-Dumanjug Road",
    "season": "1"
  },
  {
    "id": "9",
    "name": "car",
    "sitio": null,
    "barangay": "San Carlos",
    "municipality": "Dapa",
    "province": "Surigao del Norte",
    "region": "CARAGA",
    "latitude": "9.71973",
    "longitude": "125.97384",
    "households": "At least 16 households (83 residents), Iglesia Filipina Independiente",
    "season": "1"
  },
  {
    "id": "10",
    "name": "cud",
    "sitio": "Natuwolan and Wadwad",
    "barangay": "Cudog",
    "municipality": "Lagawe",
    "province": "Ifugao",
    "region": "CAR",
    "latitude": "16.80931",
    "longitude": "121.10473",
    "households": "At least 76 households (331 residents), Ifugao General Hospital, Chapel, Day Care Center",
    "season": "2"
  },
  {
    "id": "11",
    "name": "dad",
    "sitio": "Sagasa",
    "barangay": "Dadong",
    "municipality": "Tarragona",
    "province": "Davao Oriental",
    "region": "XI",
    "latitude": "7.13731",
    "longitude": "126.45091",
    "households": "1 household, road",
    "season": "1"
  },
  {
    "id": "12",
    "name": "gaa",
    "sitio": null,
    "barangay": "Gaas",
    "municipality": "Balamban",
    "province": "Cebu",
    "region": "VII",
    "latitude": "10.42352",
    "longitude": "123.78512",
    "households": "At least 24 households (121 residents), Gaas Elementary School",
    "season": "1"
  },
  {
    "id": "13",
    "name": "gam",
    "sitio": null,
    "barangay": "Gamut",
    "municipality": "Tago",
    "province": "Surigao del Sur",
    "region": "CARAGA",
    "latitude": "9.00961",
    "longitude": "126.16849",
    "households": "At least 15 households, Gamut Central Elementary School, Gamut National High School, Surigao-Davao Coastal Road",
    "season": "1"
  },
  {
    "id": "14",
    "name": "hin",
    "sitio": null,
    "barangay": "1 & 2",
    "municipality": "Hinabangan",
    "province": "Samar",
    "region": "VIII",
    "latitude": "11.70064",
    "longitude": "125.06906",
    "households": "Hinabangan Central Elementary School",
    "season": "1"
  },
  {
    "id": "15",
    "name": "hum",
    "sitio": null,
    "barangay": "Humayhumay",
    "municipality": "Guihulngan City",
    "province": "Negros Oriental",
    "region": "VII",
    "latitude": "10.18102",
    "longitude": "123.25135",
    "households": "At least 8 households (36 residents), chapel",
    "season": "1"
  },
  {
    "id": "16",
    "name": "ime",
    "sitio": null,
    "barangay": "Imelda",
    "municipality": "Tarangnan",
    "province": "Samar",
    "region": "VIII",
    "latitude": "11.90462",
    "longitude": "124.75251",
    "households": "At least 19 households (80 residents)",
    "season": "1"
  },
  {
    "id": "17",
    "name": "imu",
    "sitio": null,
    "barangay": "Immuli",
    "municipality": "Pidigan",
    "province": "Abra",
    "region": "CAR",
    "latitude": "17.52148",
    "longitude": "120.60490",
    "households": "16 households ",
    "season": "2"
  },
  {
    "id": "18",
    "name": "ina",
    "sitio": "Sambag",
    "barangay": "Inabasan",
    "municipality": "Maasin",
    "province": "Iloilo",
    "region": "VI",
    "latitude": "10.86991",
    "longitude": "122.43617",
    "households": "13 households (71 residents)",
    "season": "2"
  },
  {
    "id": "19",
    "name": "jor",
    "sitio": null,
    "barangay": "Poblacion 1",
    "municipality": "San Jorge",
    "province": "Samar",
    "region": "VIII",
    "latitude": "11.97779",
    "longitude": "124.82491",
    "households": "At least 6 households (16 residents), St. Isidore Parish Church and Convent",
    "season": "1"
  },
  {
    "id": "20",
    "name": "lab",
    "sitio": "Labey",
    "barangay": "Ambuklao",
    "municipality": "Bokod",
    "province": "Benguet",
    "region": "CAR",
    "latitude": "16.47041",
    "longitude": "120.70551",
    "households": "5 households (19 residents), Multipurpose hall",
    "season": "2"
  },
  {
    "id": "21",
    "name": "lay",
    "sitio": null,
    "barangay": "Laygayon",
    "municipality": "Pinabacdao",
    "province": "Samar",
    "region": "VIII",
    "latitude": "11.51270",
    "longitude": "125.02570",
    "households": "At least 24 households (85 residents), Maharlika Highway",
    "season": "1"
  },
  {
    "id": "22",
    "name": "lip",
    "sitio": "Purok 1",
    "barangay": "Lipanto",
    "municipality": "St. Bernard",
    "province": "Southern Leyte",
    "region": "VIII",
    "latitude": "10.22764",
    "longitude": "125.12693",
    "households": "At least 18 households (95 residents), Jct Himay - Angan - Silago - Abuyog Boundary Road",
    "season": "1"
  },
  {
    "id": "23",
    "name": "loo",
    "sitio": "Madrid",
    "barangay": "Looc",
    "municipality": "Villanueva",
    "province": "Misamis Oriental",
    "region": "X",
    "latitude": "1.00000",
    "longitude": "1.00000",
    "households": "At least 37 households (176 residents), 1 chapel, 1 apartment ",
    "season": "1"
  },
  {
    "id": "24",
    "name": "lpa",
    "sitio": null,
    "barangay": "Lipata",
    "municipality": "Paranas",
    "province": "Samar",
    "region": "VIII",
    "latitude": "11.78607",
    "longitude": "125.01933",
    "households": "At least 59 households (271 residents)",
    "season": "1"
  },
  {
    "id": "25",
    "name": "lte",
    "sitio": null,
    "barangay": "Literon",
    "municipality": "Calbiga",
    "province": "Samar",
    "region": "VIII",
    "latitude": "11.59069",
    "longitude": "125.09047",
    "households": "At least 19 households (81 residents)",
    "season": "1"
  },
  {
    "id": "26",
    "name": "lun",
    "sitio": "Caianuhan",
    "barangay": "Lunas",
    "municipality": "Maasin City",
    "province": "Southern Leyte",
    "region": "VIII",
    "latitude": "10.25857",
    "longitude": "124.87870",
    "households": "10 households (43 residents)",
    "season": "1"
  },
  {
    "id": "27",
    "name": "mag",
    "sitio": "Purok 1, 2 and 3",
    "barangay": "Magsaysay",
    "municipality": "Kibawe",
    "province": "Bukidnon",
    "region": "X",
    "latitude": "7.51923",
    "longitude": "125.05980",
    "households": "At least 20 households, barangay hall, day care center, chapel",
    "season": "1"
  },
  {
    "id": "28",
    "name": "mam",
    "sitio": "Mamuyod",
    "barangay": "Ambassador",
    "municipality": "Tublay",
    "province": "Benguet",
    "region": "CAR",
    "latitude": "16.48857",
    "longitude": "120.69161",
    "households": "78 households (369 residents), church",
    "season": "2"
  },
  {
    "id": "29",
    "name": "mar",
    "sitio": null,
    "barangay": "Marirong",
    "municipality": "Leon",
    "province": "Iloilo",
    "region": "VI",
    "latitude": "10.82726",
    "longitude": "122.32265",
    "households": "46 households (237 residents), barangay hall, daycare center, chapel",
    "season": "2"
  },
  {
    "id": "30",
    "name": "mca",
    "sitio": null,
    "barangay": "Mac-Arthur",
    "municipality": "Esperanza",
    "province": "Agusan del Sur",
    "region": "CARAGA",
    "latitude": "8.58543",
    "longitude": "125.74101",
    "households": "At least 20 households (84 residents), barangay office, health center, Datu Makumbante Elementary School",
    "season": "1"
  },
  {
    "id": "31",
    "name": "mng",
    "sitio": "Dao",
    "barangay": "Manghulyawon",
    "municipality": "La Libertad",
    "province": "Negros Oriental",
    "region": "NIR",
    "latitude": "10.04793",
    "longitude": "123.20620",
    "households": "At least 10 households (39 residents), San Vicente Ferrer Chapel",
    "season": "1"
  },
  {
    "id": "32",
    "name": "msl",
    "sitio": "Lower Mesolong",
    "barangay": "Sto. Nino",
    "municipality": "Talaingod",
    "province": "Davao del Norte",
    "region": "XI",
    "latitude": "7.62962",
    "longitude": "125.54449",
    "households": "6 households, Kapalong-Talaingod-Valencia Road",
    "season": "1"
  },
  {
    "id": "33",
    "name": "msu",
    "sitio": "Upper Mesolong",
    "barangay": "Sto. Nino",
    "municipality": "Talaingod",
    "province": "Davao del Norte",
    "region": "XI",
    "latitude": "7.62874",
    "longitude": "125.54034",
    "households": "At least 7 households, Kapalong-Talaingod-Valencia Road",
    "season": "1"
  },
  {
    "id": "34",
    "name": "nag",
    "sitio": "Purok 6",
    "barangay": "Nagyubuyuban",
    "municipality": "San Fernando City",
    "province": "La Union",
    "region": "I",
    "latitude": "16.62676",
    "longitude": "120.41722",
    "households": "At least 6 households, provincial road",
    "season": "2"
  },
  {
    "id": "35",
    "name": "nur",
    "sitio": null,
    "barangay": "Nurcia",
    "municipality": "Lanuza ",
    "province": "Surigao del Sur",
    "region": "CARAGA",
    "latitude": "9.26970",
    "longitude": "126.13843",
    "households": "Nurcia Integrated School, Surigao-Davao Coastal Road",
    "season": "1"
  },
  {
    "id": "36",
    "name": "osl",
    "sitio": null,
    "barangay": "Oslao",
    "municipality": "San Francisco",
    "province": "Surigao del Norte",
    "region": "CARAGA",
    "latitude": "9.75726",
    "longitude": "125.40137",
    "households": "At least 28 households, road",
    "season": "1"
  },
  {
    "id": "37",
    "name": "par",
    "sitio": null,
    "barangay": "Parasanon",
    "municipality": "Pinabacdao",
    "province": "Samar",
    "region": "VIII",
    "latitude": "11.51487",
    "longitude": "125.02550",
    "households": "At least 14 households (50 residents), Maharlika Highway",
    "season": "1"
  },
  {
    "id": "38",
    "name": "pep",
    "sitio": "Bangi",
    "barangay": "Pepe",
    "municipality": "Leon",
    "province": "Iloilo",
    "region": "VI",
    "latitude": "10.78729",
    "longitude": "122.33377",
    "households": "6 households (27 residents)",
    "season": "2"
  },
  {
    "id": "39",
    "name": "pin",
    "sitio": null,
    "barangay": "Pinagkamaligan",
    "municipality": "Calauag",
    "province": "Quezon",
    "region": "IVB",
    "latitude": "13.95360",
    "longitude": "122.28550",
    "households": "At least 9 households (36 residents), Rizal Street",
    "season": "1"
  },
  {
    "id": "40",
    "name": "pla",
    "sitio": "Mambog",
    "barangay": "Planas",
    "municipality": "Guihulngan City",
    "province": "Negros Oriental",
    "region": "VII",
    "latitude": "10.15984",
    "longitude": "123.24518",
    "households": "5 households (16 residents)",
    "season": "1"
  },
  {
    "id": "41",
    "name": "png",
    "sitio": null,
    "barangay": "Pange",
    "municipality": "Matnog",
    "province": "Sorsogon",
    "region": "V",
    "latitude": "12.63063",
    "longitude": "124.01831",
    "households": "At least 20 households, Pange Elementary School",
    "season": "1"
  },
  {
    "id": "42",
    "name": "pug",
    "sitio": "Longlong",
    "barangay": "Puguis",
    "municipality": "La Trinidad",
    "province": "Benguet",
    "region": "CAR",
    "latitude": "16.44655",
    "longitude": "120.57063",
    "households": "At least 50 households, Pico-Lamtang Road",
    "season": "2"
  },
  {
    "id": "43",
    "name": "sag",
    "sitio": null,
    "barangay": "Antadao",
    "municipality": "Sagada",
    "province": "Mt. Province",
    "region": "CAR",
    "latitude": "17.08263",
    "longitude": "120.92476",
    "households": "17 households (45 residents), barangay hall, Antadao Mission Church, Staunton Road",
    "season": "2"
  },
  {
    "id": "44",
    "name": "sib",
    "sitio": null,
    "barangay": "Sibajay",
    "municipality": "Boston",
    "province": "Davao Oriental",
    "region": "XI",
    "latitude": "7.82567",
    "longitude": "126.38342",
    "households": "4 households (19 residents), Surigao-Davao Coastal Road",
    "season": "1"
  },
  {
    "id": "45",
    "name": "sin",
    "sitio": "Sinipsip",
    "barangay": "Amgaleyguey",
    "municipality": "Buguias",
    "province": "Benguet",
    "region": "CAR",
    "latitude": "16.72301",
    "longitude": "120.78151",
    "households": "18 households (89 residents), barangay hall, 3 chapels",
    "season": "2"
  },
  {
    "id": "46",
    "name": "sum",
    "sitio": null,
    "barangay": "Sumalsag",
    "municipality": "Malitbog",
    "province": "Bukidnon",
    "region": "X",
    "latitude": "8.54511",
    "longitude": "124.85972",
    "households": "At least 23 households, Sumalsag Elementary School, day care center, Baptist Church",
    "season": "1"
  },
  {
    "id": "47",
    "name": "tal",
    "sitio": null,
    "barangay": "Talahid",
    "municipality": "Almeria",
    "province": "Biliran",
    "region": "VIII",
    "latitude": "11.63742",
    "longitude": "124.36649",
    "households": "At least 6 households (22 residents), Iglesia Filipina Independiente",
    "season": "1"
  },
  {
    "id": "48",
    "name": "tga",
    "sitio": null,
    "barangay": "Taga",
    "municipality": "Pinukpuk",
    "province": "Kalinga",
    "region": "CAR",
    "latitude": "17.57347",
    "longitude": "121.38339",
    "households": "At least 25 households (118 residents), church",
    "season": "2"
  },
  {
    "id": "49",
    "name": "tue",
    "sitio": null,
    "barangay": "Tue",
    "municipality": "Tadian",
    "province": "Mt. Province",
    "region": "CAR",
    "latitude": "16.97229",
    "longitude": "120.82861",
    "households": "At least 56 households (280 residents), barangay hall, Tue Elementary School, day care center, church",
    "season": "2"
  },
  {
    "id": "50",
    "name": "umi",
    "sitio": null,
    "barangay": "Umingan",
    "municipality": "Alimodian",
    "province": "Iloilo",
    "region": "VI",
    "latitude": "10.90807",
    "longitude": "122.32777",
    "households": "At least 8 households",
    "season": "2"
  }
]